{"type": "FeatureCollection", "features": [{"type": "Feature", "geometry": {"type": "Point", "coordinates": [103.82402678837296, 1.28761728173432]}, "properties": {"OBJECTID": 67601, "NAME": "TIONG BAHRU PK", "X": 26965.902, "Y": 30003.69825366, "INC_CRC": "80DAC8376EBEE92B", "FMEL_UPD_D": "20260115000356"}}, {"type": "Feature", "geometry": {"type": "Point", "coordinates": [103.81025373344491, 1.2786594119313208]}, "properties": {"OBJECTID": 67602, "NAME": "TELOK BLANGAH HILL PARK", "X": 25433.06810428, "Y": 29013.19304999, "INC_CRC": "C3DC37CDAFB3DBBC", "FMEL_UPD_D": "20260115000356"}}, {"type": "Feature", "geometry": {"type": "Point", "coordinates": [103.83179846135349, 1.2907932306700496]}, "properties": {"OBJECTID": 67605, "NAME": "GANGES AVE OS", "X": 27830.82387202, "Y": 30354.87654999, "INC_CRC": "FF52E150FDC3DB77", "FMEL_UPD_D": "20260115000356"}}, {"type": "Feature", "geometry": {"type": "Point", "coordinates": [103.81933003105215, 1.270551508736986]}, "properties": {"OBJECTID": 67607, "NAME": "MOUNT FABER PARK", "X": 26443.18219308, "Y": 28116.65569999, "INC_CRC": "0D1736E9C888A68B", "FMEL_UPD_D": "20260115000356"}}, {"type": "Feature", "geometry": {"type": "Point", "coordinates": [103.82973723189947, 1.2835903963029025]}, "properties": {"OBJECTID": 67312, "NAME": "KIM PONG PARK", "X": 27601.42555, "Y": 29558.42448529, "INC_CRC": "E8BC03C171E0EFFD", "FMEL_UPD_D": "20260115000356"}}, {"type": "Feature", "geometry": {"type": "Point", "coordinates": [103.82980087493317, 1.2760758381481567]}, "properties": {"OBJECTID": 67458, "NAME": "SILAT AVENUE PARK", "X": 27608.50742445, "Y": 28727.50354999, "INC_CRC": "3AB8B52B635F3320", "FMEL_UPD_D": "20260115000356"}}, {"type": "Feature", "geometry": {"type": "Point", "coordinates": [103.81741470354092, 1.2639582182113465]}, "properties": {"OBJECTID": 67496, "NAME": "KING'S DOCK PARK", "X": 26230.01650324, "Y": 27387.60499999, "INC_CRC": "C5256FEA9E13256A", "FMEL_UPD_D": "20260115000356"}}, {"type": "Feature", "geometry": {"type": "Point", "coordinates": [103.8020372193653, 1.2673562042777244]}, "properties": {"OBJECTID": 67503, "NAME": "LABRADOR NATURE RESERVE", "X": 24518.6209, "Y": 27763.35226563, "INC_CRC": "D8AF3B51928A2DC1", "FMEL_UPD_D": "20260115000356"}}, {"type": "Feature", "geometry": {"type": "Point", "coordinates": [103.80339748868586, 1.264366934457831]}, "properties": {"OBJECTID": 67515, "NAME": "LABRADOR NATURE PARK", "X": 24670.0047974, "Y": 27432.8125, "INC_CRC": "D77F75524936D776", "FMEL_UPD_D": "20260115000356"}}, {"type": "Feature", "geometry": {"type": "Point", "coordinates": [103.80514529311107, 1.2677204017218984]}, "properties": {"OBJECTID": 67528, "NAME": "BERLAYER CREEK", "X": 24864.52645, "Y": 27803.61937351, "INC_CRC": "B2D184C3DAB99616", "FMEL_UPD_D": "20260115000356"}}]}